{
    "items": [
        {
            "num": 1,
            "name": "함덕해수욕장",
            "address": "제주특별자치도 제주시 조천읍 함덕리",
            "longitude": 126.66971744987154,
            "latitude": 33.54311160440626,
            "contentId": "CONT_000000000500693"
        },
        {
            "num": 2,
            "name": "김녕해수욕장",
            "address": "제주특별자치도 제주시 구좌읍 김녕리",
            "longitude": 126.759463,
            "latitude": 33.557734,
            "contentId": "CONT_000000000500083"
        },
        {
            "num": 3,
            "name": "협재해수욕장",
            "address":"제주특별자치도 제주시 한림읍 협재리",
            "longitude": 126.23994220041192,
            "latitude": 33.394285064566915,
            "contentId": "CNTS_000000000019997"
        },
        {
            "num": 4,
            "name": "이호테우해수욕장",
            "address":"제주특별자치도 제주시 이호일동",
            "longitude": 126.45267070612533,
            "latitude": 33.49761066149878,
            "contentId": "CNTS_200000000007344"
        },
        {
            "num": 5,
            "name": "금능해수욕장",
            "address":"제주특별자치도 제주시 한림읍 금능리",
            "longitude": 126.23448591944401,
            "latitude": 33.38935797172361,
            "contentId": "CONT_000000000500079"
        },
        {
            "num": 6,
            "name": "신창 풍차해안",
            "address":"제주특별자치도 제주시 한경면 신창리",
            "longitude": 126.17754124599406,
            "latitude": 33.34532128636651,
            "contentId": "CNTS_200000000007676"
        },
        {
            "num": 7,
            "name": "엉알해안",
            "address":"제주특별자치도 제주시 한경면 고산리",
            "longitude": 126.16743659624376,
            "latitude": 33.29951088323074,
            "contentId": "CONT_000000000500435"
        },
        {
            "num": 8,
            "name": "하모해수욕장",
            "address":"제주특별자치도 서귀포시 대정읍 하모리",
            "longitude": 126.26162252606855,
            "latitude": 33.21100126809998,
            "contentId": "CNTS_000000000020931"
        },
        {
            "num": 9,
            "name": "사계해안",
            "address":"제주특별자치도 서귀포시 안덕면 사계리",
            "longitude": 126.3010756626727,
            "latitude": 33.226397832834294,
            "contentId": "CONT_000000000500274#"
        },
        {
            "num": 10,
            "name": "용머리해안",
            "address":"제주특별자치도 서귀포시 안덕면 사계리",
            "longitude": 126.31499564669065,
            "latitude": 33.23151342965541,
            "contentId": "CONT_000000000500471"
        },
        {
            "num": 11,
            "name": "황우치해안",
            "address":"제주특별자치도 서귀포시 안덕면 사계리",
            "longitude": 126.31756709837532,
            "latitude": 33.23779087651717,
        },
        {
            "num": 12,
            "name": "화순금모래해수욕장",
            "address":"제주특별자치도 서귀포시 안덕면 화순리",
            "longitude": 126.33333546168336,
            "latitude": 33.24026957576035,
            "contentId": "CONT_000000000500701"
        },
        {
            "num": 13,
            "name": "중문색달해수욕장",
            "address":"제주특별자치도 서귀포시 색달동",
            "longitude": 126.411482,
            "latitude": 33.245125,
            "contentId": "CONT_000000000500604"
        },
        {
            "num": 14,
            "name": "황우지해안",
            "address": "제주특별자치도 서귀포시 서홍동",
            "longitude": 126.55042496803674,
            "latitude": 33.24146341609723,
            "contentId": "CNTS_000000000018383"
        },
        {
            "num": 15,
            "name": "쇠소깍",
            "address":"제주특별자치도 서귀포시 하효동",
            "longitude": 126.62256279287033,
            "latitude": 33.25111596763033,
            "contentId": "CONT_000000000500384"
        },
        {
            "num": 16,
            "name": "남원큰엉해변",
            "address":"제주특별자치도 서귀포시 남원읍 남원리",
            "longitude": 126.71784632079925,
            "latitude": 33.27498373952622,
            "contentId": "CNTS_000000000019750"
        },
        {
            "num": 17,
            "name": "표선해수욕장",
            "address":"제주특별자치도 서귀포시 표선면 표선리",
            "longitude": 126.837355,
            "latitude": 33.327998,
            "contentId": "CNTS_000000000001196"
        },
        {
            "num": 18,
            "name": "신양섭지해수욕장",
            "address":"제주특별자치도 서귀포시 성산읍 고성리",
            "longitude": 126.92326260758836,
            "latitude": 33.434800194259424,
            "contentId": "CONT_000000000500400"
        },
        {
            "num": 19,
            "name": "광치기해변",
            "address":"제주특별자치도 서귀포시 성산읍 고성리",
            "longitude": 126.92437424405097,
            "latitude": 33.451074701925776,
            "contentId": "CNTS_000000000018413"
        },
        {
            "num": 20,
            "name": "종달리해변",
            "address":"제주특별자치도 제주시 구좌읍 종달리",
            "longitude": 126.90959466944554,
            "latitude": 33.49622273237948,
            "contentId": "CNTS_000000000019743"
        },
        {
            "num": 21,
            "name": "산호해수욕장",
            "address":"제주특별자치도 제주시 우도면 연평리",
            "longitude": 126.9433567185979,
            "latitude": 33.502334894844,
            "contentId": "CONT_000000000500474"
        },
        {
            "num": 22,
            "name": "하고수동해수욕장",
            "address":"제주특별자치도 제주시 우도면 연평리",
            "longitude": 126.9583257181827,
            "latitude": 33.51381889886314,
            "contentId": "CONT_000000000500673"
        },
        {
            "num": 23,
            "name": "검멀레해수욕장",
            "address":"제주특별자치도 제주시 우도면 연평리",
            "longitude": 126.967086836001,
            "latitude": 33.49732332017858,
            "contentId": "CONT_000000000500046"
        },
        {
            "num": 24,
            "name": "하도해수욕장",
            "address":"제주특별자치도 제주시 구좌읍 하도리",
            "longitude": 126.89941186315025,
            "latitude": 33.51387237728811,
            "contentId": "CONT_000000000500677"
        },
        {
            "num": 25,
            "name": "세화해수욕장",
            "address":"제주특별자치도 제주시 구좌읍 세화리",
            "longitude": 126.86079504535019,
            "latitude": 33.52512879811651,
            "contentId": "CONT_000000000500361"
        },
        {
            "num": 26,
            "name": "평대해변",
            "address":"제주특별자치도 제주시 구좌읍 평대리",
            "longitude": 126.84069863213585,
            "latitude": 33.533440727930696,
            "contentId": "CNTS_000000000021475"
        },
        {
            "num": 27,
            "name": "코난해변",
            "address":"제주특별자치도 제주시 구좌읍 행원리",
            "longitude": 126.811221,
            "latitude": 33.5576139
        },
        {
            "num": 28,
            "name": "월정리해수욕장",
            "address":"제주특별자치도 제주시 구좌읍 월정리",
            "longitude": 126.79665967414883,
            "latitude": 33.55569307080309,
            "contentId": "CONT_000000000500496"
        },
        {
            "num": 29,
            "name": "세기알 해변",
            "address":"제주특별자치도 제주시 구좌읍 김녕리",
            "longitude": 126.75554929269578,
            "latitude": 33.55793516843718
        },
        {
            "num": 30,
            "name": "제주신흥해수욕장",
            "address":"제주특별자치도 제주시 조천읍 신흥리",
            "longitude": 126.64904772966509,
            "latitude": 33.55195021702416
        },
        {
            "num": 31,
            "name": "삼양해수욕장",
            "address":"제주특별자치도 제주시 삼양일동",
            "longitude": 126.58664514064668,
            "latitude": 33.5262221957652,
            "contentId": "CONT_000000000500301"
        },
        {
            "num": 32,
            "name": "알작지",
            "address":"제주특별자치도 제주시 내도동",
            "longitude": 126.43978412562052,
            "latitude": 33.49593744846629,
            "contentId": "CNTS_000000000018411"
        },
        {
            "num": 33,
            "name": "한담해변",
            "address":"제주특별자치도 제주시 애월읍 애월리",
            "longitude": 126.31023128435737,
            "latitude": 33.462233516670324,
            "contentId": "CONT_000000000500682#"
        },
        {
            "num": 34,
            "name": "곽지해수욕장",
            "address":"제주특별자치도 제주시 애월읍 곽지리",
            "longitude": 126.30598346041705,
            "latitude": 33.45077525507729,
            "contentId": "CONT_000000000500056"
        }
    ]
}


